Country,City,Latitude,Longitude,Temperature,Humidity,Cloudiness,Wind Speed
hr,omis,43.4447222,16.6886111,82.4,51,0,5.82
fr,chateau-thierry,49.05,3.4,71.6,43,8,10.29
ph,silawit,16.873155999999998,121.75924199999999,72.34,99,92,3.27
cz,benesov,49.782377000000004,14.686569,66.72,40,0,3.36
ru,donskoy,53.68103000000001,38.647755,73.6,54,32,5.84
ie,bundoran,54.466666700000005,-8.2833333,60.82,86,92,11.77
hu,szikszo,48.2,20.933332999999998,66.2,88,75,2.24
br,aguai,-22.066667000000002,-46.966667,67.21,45,0,9.17
pe,san jeronimo,-13.650555599999999,-73.365,48.2,66,75,2.48
ro,stalpeni,45.05,24.966667,70.27,74,36,2.37
za,alice,-32.787493,26.834396,60.91,49,0,7.96
ro,curtesti,47.716667,26.65,75.2,60,0,3.36
no,bjorkelangen,59.88333299999999,11.566667,77.74,33,24,3.27
ro,palatca,46.85,23.983333,77.29,69,20,9.17
so,berbera,10.435555599999999,45.016388899999995,90.16,30,64,13.78
ro,grivita,44.733333,27.283333000000002,74.59,71,24,3.38
ro,pangarati,46.933333000000005,26.15,66.04,85,32,2.37
at,ybbs,48.166667,15.083332999999998,66.2,63,40,8.05
co,soraca,5.500548,-73.332992,58.93,78,76,2.37
us,canton,40.5580556,-90.035,82.98,54,1,4.7
rs,kac,45.304167,19.941944,84.2,45,0,3.36
do,jimani,18.490833300000002,-71.8508333,91.4,52,20,11.41
ro,tomesti,46.216667,22.65,66.94,88,24,2.04
rs,negotin,44.226389000000005,22.530832999999998,72.97,92,0,1.92
ua,borodyanka,50.644842,29.920103000000005,70.65,64,88,4.47
ua,spasskoye,48.659833,35.052423,73.4,69,0,4.47
bo,irpa irpa,-17.716666699999998,-66.2666667,68,20,75,6.93
ua,eskhar,49.798663,36.588307,80.6,54,40,4.47
cz,kraslice,50.327579,12.511121000000001,56.41,87,40,3.36
ph,solsona,18.093332999999998,120.769722,74.59,100,76,3.27
br,coronel vivida,-25.966667,-52.566667,62.17,53,0,3.71
in,tondi,9.733333,79.016667,85.12,95,80,23.73
hu,kazincbarcika,48.25,20.633333,66.2,88,75,2.24
il,hurfeish,33.017108,35.348352,82.4,65,20,10.29
lv,limbazi,57.51027779999999,24.7141667,71.53,64,24,6.73
ph,mambulo,13.716667000000001,123.05,80.17,89,64,12.44
pa,rio hato,8.3833333,-80.16666670000001,78.91,100,64,2.15
us,somers point,39.3175,-74.595,88.65,33,75,11.41
gt,san francisco,16.8,-89.93333299999999,83.59,80,76,3.6
us,post falls,47.71805560000001,-116.95055559999999,67.3,59,1,3.36
np,siraha,26.65,86.2,83.95,78,56,8.97
ir,golpayegan,33.453702,50.288361,77.29,20,0,7.74
ph,santo cristo,15.330557999999998,120.673231,77,94,90,3.36
py,nacunday,-26.016667,-54.766667000000005,62.64,63,0,3.36
ph,lipay,16.708056,120.409722,68.74,98,88,1.7
gr,kouloura,40.5452778,22.3180556,83.62,31,20,8.05
hn,buenos aires,15.0333333,-88.9666667,71.98,88,80,2.59
mx,cuilapam,17.0,-96.766667,69.8,56,40,5.95
in,bagru,26.8084,75.5435,84.2,70,75,8.05
py,cambyreta,-27.35,-55.783333,60.87,62,0,11.41
ru,psedakh,43.467222,44.569167,78.28,66,0,2.26
ni,puerto morazan,12.85,-87.1833333,89.6,52,20,4.7
us,oakland park,26.171944399999997,-80.1322222,87.78,62,75,5.82
pk,diplo,24.466667,69.584007,87.82,63,68,15.9
us,bothell,47.7625,-122.20416670000002,63.79,72,1,6.93
mx,sucila,21.15,-88.3125,84.2,74,75,5.82
sv,el transito,13.35,-88.35,89.6,52,0,3.36
cn,huzhou,30.870301,120.09329699999999,81.61,72,20,15.57
pa,chilibre,9.15,-79.6166667,84.2,70,40,4.7
ve,machiques,10.064444400000001,-72.545,81.16,75,32,5.06
lu,sandweiler,49.6133333,6.2188889000000005,69.8,46,0,8.05
us,kalispell,48.1958333,-114.31194440000002,66.2,55,1,4.7
co,cordoba,4.393185,-75.689353,78.37,73,40,4.7
do,constanza,18.9166667,-70.75,87.8,58,75,19.46
ag,liberta,17.033333300000002,-61.783333299999995,84.2,66,40,14.99
ru,khotkovo,56.25,38.0,71.6,68,20,6.71
tz,ilongero,-4.6666667,34.8666667,64.96,61,32,9.64
py,santa rosa,-26.866667,-56.85,63.97,65,20,3.27
de,stuhr,53.033333,8.75,62.6,93,75,8.05
it,stradella,45.083333,9.3,77.07,65,40,6.93
hn,chirinos,15.4,-86.58333329999999,82.4,78,75,2.24
ro,nocrich,45.9,24.45,79.77,54,20,2.24
it,chiaravalle,43.6,13.316667,75.2,73,75,6.93
sk,stropkov,49.2,21.65,66.2,88,75,2.24
ph,san antonio,17.273232,121.792645,71.17,100,80,2.59
ph,union,11.7612,121.8963,78.19,100,92,17.81
ba,bileca,42.8719444,18.429722199999997,80.17,57,0,4.7
ph,santa teresa,12.251855,121.11251200000001,77.47,100,92,9.98
ro,cajvana,47.7,25.966667,76.19,60,0,3.36
cn,wufeng,27.45,104.833333,66.4,98,100,1.36
ws,sataua,-13.4666667,-172.66666669999998,80.26,100,88,31.45
mx,contla,19.197222,-98.2,62.6,63,40,3.36
ca,elliot lake,46.383333,-82.65,78.8,34,1,8.05
cn,hutang,31.533333000000002,119.483333,81.16,77,0,18.59
ua,kochetok,49.880047,36.737232,80.6,54,40,4.47
us,ionia,42.9872222,-85.0711111,78.8,39,1,4.83
mx,apatlaco,18.783333,-98.95,73.4,60,40,3.36
us,summerville,33.0183333,-80.1758333,90.5,49,1,3.04
ru,usogorsk,63.410636,48.687225,67.21,54,8,6.29
dk,ribe,55.329462,8.781352,76.24,36,32,2.24
gr,mesimerion,40.4166667,23.0,87.8,31,20,8.05
id,tayu,-6.5397,111.0518,76.03,99,36,5.61
cu,pinar del rio,22.4175,-83.6980556,88.18,69,32,5.39
cn,encheng,22.183892,112.30259699999999,73.42,94,32,3.15
ph,buang,13.3115,123.6421,79.99,89,80,8.3
in,cortalim,15.383332999999999,73.883333,73.96,100,92,10.2
co,vegachi,6.761409,-74.794731,80.62,53,0,2.71
it,tolmezzo,46.4075,13.0175,68.36,93,75,1.12
ie,skibbereen,51.55,-9.266666699999998,68,68,75,8.05
sv,chapeltique,13.633333300000002,-88.2666667,89.6,52,0,3.36
us,bend,44.0583333,-121.31416670000002,68.92,42,1,6.93
nl,alkmaar,52.63581800000001,4.75561,66.61,72,0,14.99
ro,poiana marului,45.6,25.3,63.61,75,100,2.15
in,milak,28.616667,79.18333299999999,79.99,93,48,5.28
ua,serpneve,46.300940000000004,29.019578999999997,71.89,82,20,4.94
ee,marjamaa,58.9038889,24.4305556,68,60,0,6.93
it,thiene,45.7,11.483333,65.77,65,20,6.93
ca,beloeil,45.566666999999995,-73.2,72.19,40,1,2.24
es,paterna,39.5,-0.43333299999999997,80.6,69,40,9.17
mk,kamenjane,41.944444399999995,20.9266667,86,37,20,3.36
us,harrison,36.2297222,-93.1075,90.37,44,40,3.15
us,martinsburg,39.4561111,-77.9641667,83.57,57,40,5.82
gb,portadown,54.433333,-6.45,60.87,87,75,9.17
cn,zalantun,48.0,122.71666699999999,65.86,99,92,4.27
cu,bejucal,22.9286111,-82.38861109999999,87.8,62,75,4.7
us,naguabo,18.2136111,-65.73527779999999,85.03,74,20,18.34
au,mackay,-21.15345,149.16554299999999,53.6,93,40,3.36
us,college station,30.6277778,-96.3341667,86.9,58,1,6.93
pl,wegrow,52.401958,22.016667,77.65,41,92,4.27
tz,igurusi,-8.85,33.85,49.21,79,0,3.27
mx,acambaro,20.033333,-100.733333,62.6,82,75,3.15
de,nideggen,50.7,6.483333,65.64,60,75,12.75
lu,berchem,49.5402778,6.1291667,69.8,46,0,8.05
ph,lumbayao,6.947222,122.14111100000001,73.87,100,92,6.4
ci,ndiekro,7.426753999999999,-4.765391,84.2,70,75,9.17
ru,druzhba,44.1953,42.016999999999996,73.87,76,0,3.04
lv,viesite,56.35,25.55,70.54,70,36,4.38
ru,novouzensk,50.459167,48.143056,79.54,35,0,8.97
ru,selyatino,55.515141,36.977461,69.78,64,40,8.95
hn,santa cruz de yojoa,14.983333300000002,-87.9,86,79,75,11.41
ph,polangi,12.396666999999999,124.631111,78.82,100,48,1.92
ru,divnogorsk,55.9581,92.3726,59,93,40,1.92
us,riverdale,41.6333333,-87.63305559999999,82.04,39,40,3.36
br,frei paulo,-10.55,-37.533333,82.4,69,40,10.29
my,semporna,4.4817800000000005,118.611185,75.2,88,75,7.74
ml,kayes,14.45,-11.433333300000001,89.62,73,0,7.29
in,ettaiyapuram,9.15,77.983333,80.8,70,32,10.31
ro,buces,46.183333000000005,22.933332999999998,66.94,88,24,2.04
mx,jonuta,18.083333,-92.133333,90.07,68,0,10.2
de,ginsheim-gustavsburg,49.985833,8.3425,66.85,59,90,4.7
ve,maracay,10.2469444,-67.5958333,73.51,100,48,3.6
mu,creve coeur,-20.1911111,57.557222200000005,71.6,68,40,10.29
ro,margaritesti,45.433333000000005,26.833333000000003,70.9,81,44,2.71
gr,mandra,38.0666667,23.5,83.39,61,40,9.17
us,tewksbury,42.610555600000005,-71.23472220000001,77.31,47,40,5.95
cg,loubomo,-4.1997222,12.673888900000001,76.66,72,8,2.93
in,kochi,9.966667,76.233333,77,94,90,1.36
ph,san manuel,17.023748,121.63574299999999,72.34,99,92,3.27
ru,poyarkovo,49.6,128.683333,70.81,81,76,7.4
co,flandes,4.294127,-74.819011,80.6,54,40,4.7
ru,yelniki,54.623476000000004,43.873090999999995,66.31,85,48,5.17
ua,ivanivka,46.72082,34.552982,75.31,75,12,3.04
cl,talca,-35.433333000000005,-71.666667,48.2,70,75,2.24
it,calenzano,43.85,11.15,80.98,48,20,10.29
us,bixby,35.9419444,-95.88305559999999,92.1,46,40,10.29
pt,aroes,41.455533,-8.214186,75.2,73,20,5.82
es,onda,39.966667,-0.25,80.6,69,40,9.17
br,angra dos reis,-23.0,-44.3,71.6,53,20,10.29
cz,votice,49.639484,14.640219,66.7,40,0,3.36
fr,dole,47.092847,5.493003,72.45,40,0,11.41
cn,xinzhou,38.409167,112.733333,65.14,97,92,2.04
us,oak forest,41.6027778,-87.7438889,82.08,39,40,3.36
ca,bolton,43.883333,-79.733333,75.51,36,75,9.17
in,tandur,17.233333,77.583333,72.43,95,92,15.01
th,tak bai,6.259472,102.054611,82.4,83,75,3.38
fr,fameck,49.30335,6.108598000000001,69.8,46,90,10.29
ru,grushevskaya,47.439640999999995,39.985982,77.83,65,36,0.92
hu,szigetcsep,47.264921,18.970484,68,82,75,8.05
it,la spezia,44.116667,9.833333,78.8,65,20,14.99
mk,podares,41.6138889,22.542222199999998,76.66,43,64,1.92
in,anekal,12.7,77.7,71.6,83,75,16.11
pk,islamkot,24.6997,70.17699999999999,89.08,58,64,15.68
ph,tariji,15.5211,120.6124,77,94,90,3.36
br,itaquitinga,-7.6666669999999995,-35.1,81.52,69,75,12.75
pe,ramon castilla,-4.2569444,-69.9594444,76.12,73,0,9.17
cn,jiaozhou,36.283889,120.00333300000001,77,94,90,13.42
in,bhawanigarh,30.266666999999998,76.035,82.87,82,24,11.77
mx,palmar de bravo,18.833333,-97.56666700000001,78.01,35,0,8.19
gt,san lucas sacatepequez,14.609722,-90.656944,68,64,75,20.8
gb,barnstaple,51.083333,-4.05,72.14,41,20,8.05
si,rence,45.89,13.6686111,68.63,77,75,10.29
in,masinigudi,11.566667,76.666667,69.46,86,92,4.16
co,casabianca,5.079586,-75.120591,79.72,48,8,5.73
cz,bystrice pod hostynem,49.399643,17.674172,66.2,77,20,8.05
it,mazara del vallo,37.65,12.583333,82.4,69,0,10.29
tz,lupiro,-8.3833333,36.6666667,66.04,92,8,3.04
hu,mende,47.431325,19.456282,71.82,82,75,8.05
us,libertyville,42.283055600000004,-87.9530556,81.07,42,1,8.05
no,melsomvik,59.223889,10.344722,78.8,34,0,9.17
ph,calubcub,13.740278,121.43611100000001,75.76,100,92,1.7
gr,svoronos,40.264444399999995,22.46,82.38,37,20,9.17
tr,turhal,40.3875,36.081111,78.8,57,20,21.92
br,candido mota,-22.716667,-50.383333,69.46,39,0,8.08
ph,laylay,13.4391,121.8202,75.22,100,92,11.1
it,fiesole,43.8,11.283333,84.2,48,20,10.29
us,paterson,40.9166667,-74.17222220000001,83.43,51,20,4.7
co,montenegro,4.566389,-75.751111,78.37,73,40,4.7
es,grado,43.388014,-6.074326999999999,68,88,75,4.7
ru,spokoynaya,44.2468,41.4015,74.77,79,0,2.15
ru,prokudskoye,55.0089,82.4574,66.2,77,0,4.47
co,marinilla,6.173579,-75.336208,78.8,47,20,9.17
ru,totma,59.973749,42.764865,68.56,59,80,8.86
br,juru,-7.533333,-37.816666999999995,83.77,44,56,6.17
py,santa maria,-26.783333000000002,-56.933333,63.97,65,20,3.27
ve,calabozo,8.9344444,-67.4266667,81.34,86,88,4.38
ba,bijeljina,44.756944399999995,19.2161111,75.2,60,40,11.41
de,schwanewede,53.233332999999995,8.6,65.88,93,75,8.05
ph,banilad,14.0667,120.7347,80.6,100,75,18.59
gt,rabinal,15.1,-90.45,68,64,75,20.8
gr,peristerion,38.0166667,23.7,82.4,54,40,9.17
ua,zdolbuniv,50.520599,26.242513,74.5,51,0,7.85
us,richmond heights,38.6286111,-90.3194444,85.62,35,20,6.93
gr,kardia,40.4677778,22.9947222,86,37,20,9.17
ru,kosaya gora,54.118956000000004,37.544592,70.9,68,76,5.73
ph,irosin,12.7026,124.0362,82.42,96,56,8.41
us,harrisonville,38.6533333,-94.34861109999999,92.3,46,1,6.93
ro,barcanesti,44.633333,26.65,79.7,61,0,3.36
cm,yabassi,4.454444400000001,9.9655556,84.2,79,20,5.82
gn,faranah,10.0333333,-10.733333300000002,81.97,77,0,10.54
br,sao carlos,-22.016667,-47.9,64.4,45,0,9.17
ph,tapaz,11.2613,122.5364,74.68,93,48,3.83
ch,spiez,46.684733,7.691108,72.61,43,20,5.82
ua,chapayevka,47.471138,36.345065999999996,73.51,71,0,9.19
rs,medveda,43.629166999999995,21.078332999999997,84.2,42,0,2.24
nl,tholen,51.538942999999996,4.217105999999999,68.34,56,90,11.41
ca,geraldton,49.716667,-86.966667,77,47,75,2.24
ro,budureasa,46.666667,22.5,73.4,78,20,2.59
ke,wote,-1.7833332999999998,37.6333333,69.55,67,100,8.63
it,monserrato,39.256111,9.139722,88.66,31,0,9.17
mx,san juan del rio,20.383333,-100.0,62.6,67,75,11.41
hu,osi,47.147216,18.188329,67.12,77,75,4.7
sn,mbacke,14.8,-15.916666699999999,95,47,75,4.7
it,negrar,45.533333,10.916667,68.04,64,20,6.93
cz,holysov,49.592964,13.100612,59.88,82,75,2.24
us,maumelle,34.8666667,-92.4041667,91.4,55,1,3.36
ba,bosanski brod,45.1375,17.9897222,75.2,64,20,5.82
ph,tinongan,10.215,123.035278,73.96,99,88,3.83
gr,metsovon,39.7694444,21.1822222,82.4,45,20,1.7
mx,acuexcomac,18.841667,-98.063889,62.6,63,40,3.36
in,patan,21.033333,81.533333,75.67,97,100,12.77
in,dabra,25.9,78.333333,80.71,93,76,3.38
ru,kormilovka,55.002644,74.10280999999999,69.8,68,75,8.95
mz,manjacaze,-24.7116667,33.8827778,64.87,79,0,8.97
in,kayalpattinam,8.566667,78.116667,80.26,80,56,12.21
be,aywaille,50.466667,5.6666669999999995,68.4,46,0,8.05
gm,brikama,13.2675,-16.6461111,89.6,66,75,5.82
us,little ferry,40.8527778,-74.0425,83.75,48,40,8.05
ru,podgorenskiy,50.404976,39.642953000000006,75.94,58,92,3.71
gb,cairneyhill,56.05,-3.5333330000000003,66.97,60,20,9.17
be,pepingen,50.75,4.15,70.97,53,0,11.41
ro,turnu magurele,43.75,24.866667,73.42,85,8,2.82
us,universal city,29.5477778,-98.2908333,87.04,70,20,4.7
us,davie,26.0625,-80.2333333,87.78,62,75,5.82
ba,izacic,44.875,15.781944400000002,69.73,81,32,2.59
th,lop buri,14.798084,100.653972,74.5,95,80,7.29
de,hilter,52.15,8.15,62.67,93,75,8.05
ro,jina,45.783333,23.683332999999998,78.8,54,20,2.24
br,osasco,-23.566667000000002,-46.783333,58.69,67,75,8.05
de,malsch,48.883333,8.333333,70.7,46,0,4.7
ee,luunja,58.3558333,26.8808333,66.2,63,0,5.82
pg,samarai,-10.616666699999998,150.66666669999998,74.5,100,92,12.77
ph,diaz,15.8463,120.8347,72.43,99,92,5.95
cn,caohai,26.85,104.233333,61.9,100,92,3.27
us,yauco,18.0369444,-66.85027779999999,87.8,66,75,14.99
us,sussex,43.133888899999995,-88.2219444,79.81,44,5,9.17
us,edmonds,47.8108333,-122.3761111,67.32,68,1,9.17
th,nong bua,15.864583999999999,100.585806,74.86,92,80,6.85
hn,santa barbara,14.916666699999999,-88.2333333,86,79,75,11.41
us,ellensburg,46.9966667,-120.54666670000002,69.28,43,1,2.59
br,adamantina,-21.683332999999998,-51.066666999999995,68,25,0,16.11
pk,sanjwal,33.760833,72.433611,87.8,70,75,13.87
br,piraquara,-25.433332999999998,-49.066666999999995,55.4,50,75,4.7
so,mahadday weyne,2.9666667,45.533333299999995,78.82,65,80,17.58
id,kramat,-6.8688,109.2074,79.45,100,0,12.66
gh,suhum,6.0333333,-0.45,84.2,70,20,19.46
dk,haderslev,55.252433999999994,9.489315,76.24,44,40,5.82
us,glendale,33.538611100000004,-112.1852778,86.54,55,1,4.16
hu,marcali,46.584983,17.411965,68,77,40,9.17
ua,lysyanka,49.25229,30.829463,71.17,77,24,6.73
ru,esso,55.933333,158.7,32.92,78,0,2.15
ro,baita,46.033333,22.9,66.94,88,24,2.04
in,pennadam,11.4,79.233333,83.05,61,88,14
ru,nesterovskaya,43.238611,45.050278000000006,77.74,65,0,3.6
ro,urechesti,45.6,27.066667,70.9,81,44,2.71
ph,san roque,16.0529,120.7576,69.73,99,92,3.38
ro,cornatelu,44.75,25.666667,79.7,61,0,3.36
ir,dehloran,32.6941,47.2679,101.05,15,0,10.98
ph,macalaya,12.889444000000001,123.771111,83.32,95,64,10.98
kz,chardara,41.254721999999994,67.969167,86.2,25,0,13.22
fr,nanterre,48.891373,2.20027,71.15,49,75,9.17
pg,kieta,-6.2166667,155.6333333,77.11,100,76,3.94
mx,san luis rio colorado,32.463056,-114.77666699999999,89.26,46,1,13.87
id,sindang,-6.334167,108.316111,75.67,100,0,15.23
hu,sajokaza,48.283333,20.583333,66.2,88,40,5.82
bg,haskovo,41.9402778,25.5694444,82.4,48,0,5.82
cn,shancheng,34.795278,116.081667,81.79,79,64,8.63
ph,marsada,5.931389,121.106944,80.17,100,92,10.31
et,kibre mengist,5.883333,38.983333,58.12,100,92,2.59
ru,konstantinovskoye,45.299167,42.636666999999996,87.8,38,40,4.47
yt,dzaoudzi,-12.779444400000001,45.2536111,77,69,0,11.41
pk,kambar,27.586755,68.001026,94.12,54,68,8.75
sk,stara tura,48.783333299999995,17.7,68,77,75,1.12
pe,oyotun,-6.851944400000001,-79.3036111,72.52,75,0,1.14
br,pio ix,-6.8333330000000005,-40.616667,89.17,34,0,10.98
ph,banawang,14.6121,120.39,78.8,94,75,2.24
vn,lang son,21.833333,106.733333,75.22,94,12,2.71
my,bedong,5.727435,100.50876099999999,80.6,83,75,2.24
no,hallingby,60.266667000000005,10.2,75.49,37,64,2.48
ba,rogatica,43.8008333,19.0025,71.58,57,0,4.7
br,iguaba grande,-22.833333,-42.216667,68.88,60,75,11.41
ro,homorod-de jos,47.666667,23.083333,77.86,57,56,6.93
bd,jamalpur,24.9166667,89.9333333,80.62,87,100,8.52
ph,babag,7.731111,126.07083300000001,72.79,97,88,1.14
ph,aguisan,10.1603,122.8615,73.96,99,88,3.83
ru,zmievka,52.666971999999994,36.374258000000005,72.52,53,44,6.96
no,stavanger,58.966667,5.75,57.04,77,0,6.93
fr,saint-etienne,45.435382000000004,4.391051,74.07,49,0,10.29
cz,bor,49.713097999999995,12.776297,59.59,82,75,4.61
ph,san miguel,10.4154,123.0214,73.96,99,88,3.83
pk,bhakkar,31.625246999999998,71.06574,92.77,49,36,7.4
zw,shurugwi,-19.6666667,30.0,53.17,86,0,9.42
zw,masvingo,-20.0833333,30.8333333,54.16,87,0,8.75
fr,aubergenville,48.959957,1.854673,71.01,60,36,8.05
ro,zorlentu mare,45.450556,21.956111,81.5,57,0,2.24
br,ico,-6.4,-38.85,90.61,37,80,10.42
mx,acapetahua,15.283332999999999,-92.7,87.8,70,40,5.82
ro,sura mica,45.833333,24.066667000000002,78.8,57,20,2.24
ro,darvari,44.2,23.05,78.8,57,0,4.7
no,storslett,69.583333,20.583333,57.2,67,0,11.41
jp,arai,37.016667,138.25,72.43,96,80,4.05
pk,liliani,32.206513,72.953724,83.5,71,44,9.42
de,edemissen,52.383333,10.266667,64.4,82,75,4.7
ru,kizhinga,51.8462,109.9097,54.16,99,92,2.04
br,jardim do serido,-6.5833330000000005,-36.766667,80.08,65,56,10.87
ro,seitin,46.1,20.85,78.57,61,24,2.24
ph,san benito,9.957778,126.00694399999999,85.66,99,48,9.42
ph,sergio osmena sr,8.166667,123.5,72.88,100,80,3.71
ro,barla,44.433333000000005,24.766667,72.79,82,24,4.27
th,dan khun thot,15.208499,101.771381,78.8,83,76,4.7
ru,taremskoye,55.92889399999999,43.044334,69.8,83,40,6.71
am,gogaran,40.8955556,44.1991667,78.8,57,0,8.05
us,urbana,40.1083333,-83.7525,79.2,54,0,8.05
ro,tautii margheraus,47.65,23.483333,77,65,56,3.36
ro,babadag,44.9,28.716666999999998,79.61,54,12,5.82
us,gladeview,25.8388889,-80.2358333,87.8,66,75,6.93
mx,progreso,20.25,-99.2,73.78,47,0,3.83
ph,baculongan,16.8,120.8333,68.74,98,88,1.7
lv,aizpute,56.716666700000005,21.6,75.2,60,88,3.36
gr,ayios nikolaos,35.1913889,25.713333300000002,80.6,78,20,11.41
fr,illkirch-graffenstaden,48.523635,7.71542,71.55,40,8,8.05
br,tambau,-21.7,-47.266667,64.4,45,0,9.17
ru,novaya lyalya,59.05503,60.598989,62.44,97,32,4.61
de,rehau,50.25,12.033333,57.31,87,40,3.36
in,meghraj,23.5,73.5,76.66,93,92,7.74
co,jenesano,5.385406,-73.363644,58.93,78,76,2.37
it,fiorano modenese,44.533333,10.816667,74.34,78,75,6.93
pl,dabrowa gornicza,50.326206,19.224381,63.55,88,40,4.7
lt,kybartai,54.635555599999996,22.7383333,72.79,68,32,6.17
dk,sundby,54.86399599999999,11.79302,65.59,96,92,13.11
ph,sinobong,8.0684,125.9308,72.79,97,88,1.14
ph,san andres,14.05,121.21666699999999,80.6,100,75,1.7
ru,nyuksenitsa,60.411593,44.233087,69.19,59,56,9.98
us,angola,41.6347222,-84.9994444,80.15,39,1,9.17
ru,kologriv,58.827482999999994,44.317769,68.02,60,64,6.17
us,lyndon,38.256666700000004,-85.6016667,86.32,66,75,4.7
ru,sunzha,43.058616,44.82281,77.74,65,0,3.6
ph,caningay,9.8297,122.6442,78.64,100,68,19.04
ph,isugod,9.340766,118.119598,78.91,100,92,19.37
lk,anuradhapura,8.35,80.3833333,79.99,77,64,18.25
ru,vakhrushevo,55.2295,61.7487,66.2,77,20,6.71
ro,pietrosita,45.183333000000005,25.433332999999998,70.27,74,36,2.37
lu,bergem,49.525,6.0422222,69.8,46,0,8.05
jp,amagi,33.416667,130.65,79.3,74,32,2.24
pt,beduido,40.764271,-8.561096000000001,73.53,78,75,11.41
ru,pavlovsk,59.683333,30.434721999999997,73.4,49,0,8.95
ro,izvoru crisului,46.833333,23.1,73.4,69,20,6.93
it,codogno,45.15,9.7,75.81,100,0,11.41
np,janakpur,26.7,85.91666670000001,79.36,87,92,3.71
ng,ondo,7.1,4.8333330000000005,76.84,82,92,3.15
us,kirkland,47.6816667,-122.2075,67.78,56,20,4.7
ph,pogonsili,15.8189,120.2581,73.15,100,92,5.5
al,leskovik,40.15138889999999,20.597222199999997,77,61,20,1.59
co,colon,1.6432220000000002,-77.024333,75.2,44,40,11.41
ee,ulenurme,58.3158333,26.7241667,66.2,63,0,5.82
fr,saintes,45.745604,-0.631674,78.13,34,8,10.29
id,depok,-6.343333,106.49888899999999,82.4,69,40,6.93
us,university park,32.85,-96.8,89.71,59,75,6.93
uz,gazli,40.1333333,63.45,90.97,19,0,10.65
ch,zollikofen,46.995678000000005,7.459013000000001,70.3,43,20,8.05
ph,marao,13.9166,121.8397,78.73,100,80,10.87
tz,muheza,-5.1666667,38.783333299999995,77.56,78,8,14.9
us,mamaroneck,40.9486111,-73.7330556,82.92,54,40,14.99
us,faribault,44.295,-93.26861109999999,83.28,66,1,10.29
ph,calinaoan,17.361427,121.742345,71.17,100,80,2.59
co,unguia,8.043346000000001,-77.094527,86,74,40,9.17
ru,uvarovo,51.984858,42.261474,75.04,40,44,6.06
ru,zaigrayevo,51.8336,108.2703,55.4,93,90,4.47
at,wolfsberg,46.840556,14.844167,62.01,82,92,3.36
de,plankstadt,49.394444,8.596111,68,49,0,6.93
ru,bogorodskoye,52.365833,140.445556,54.07,95,0,2.15
bw,mmathubudukwane,-24.6,26.433333299999997,56.05,60,0,6.96
br,ji-parana,-10.833333,-61.966667,80.89,53,0,3.6
am,tsovinar,40.1608333,45.453888899999995,64.42,80,0,3.71
cn,longkou,37.650833,120.32861100000001,76.93,87,80,16.69
ca,penhold,52.133333,-113.86666699999999,69.8,46,20,13.87
ru,chukhloma,58.753748,42.683184000000004,66.67,64,68,7.96
br,miguel calmon,-11.433333,-40.6,81.52,46,0,6.17
pk,gwadar,25.12163,62.325410999999995,84.94,93,56,7.74
us,dobbs ferry,41.014444399999995,-73.8730556,82.71,54,40,14.99
cf,carnot,4.9333333,15.866666699999998,72.34,88,80,3.71
ph,kibangay,8.049722000000001,124.893056,67.84,84,92,1.92
tz,urambo,-5.0666667,32.05,69.19,45,0,4.38
in,panaji,15.483332999999998,73.833333,73.96,100,92,10.2
cz,rudna,50.032859,14.225905,67.14,42,0,5.82
jp,kisai,36.1,139.583333,79.11,83,75,8.05
ua,preobrazhenka,47.571938,35.816666,80.6,54,0,6.71
ua,sukhovolya,49.824261,23.837695,77,44,0,4.47
us,germantown,35.0866667,-89.81,89.58,55,75,3.36
de,dossenheim,49.450278000000004,8.674722000000001,66.74,49,0,6.93
jp,tokamachi,37.133333,138.76666699999998,69.46,100,68,2.48
it,favara,37.316666999999995,13.65,77,78,20,6.93
us,defiance,41.2844444,-84.3558333,80.58,39,1,9.17
us,golden glades,25.9113889,-80.2005556,87.8,66,1,4.38
de,nurtingen,48.633333,9.35,66.87,45,40,5.82
ph,salcedo,12.810516,121.46741499999999,71.26,99,92,1.14
ua,velyka bilozerka,47.277556,34.706158,80.71,58,0,4.94
au,dalby,-27.181690000000003,151.262054,51.8,87,40,3.36
pk,madeji,27.754434000000003,68.452556,94.21,51,8,12.21
dk,thuro,55.047398,10.663847,73.4,46,20,12.75
in,cherrapunji,25.3,91.7,71.62,100,92,2.26
kz,zaysan,47.466667,84.866667,57.76,45,12,5.17
br,imaculada,-7.366667,-37.5,83.77,49,80,9.19
gt,aguacatan,15.343055999999999,-91.311667,70.63,68,8,2.15
br,iraucuba,-3.75,-39.783333,80.44,72,48,11.21
gr,perdika,39.368888899999995,20.3038889,78.75,65,0,6.93
ru,bolshiye kolpany,59.523332999999994,30.069444,73.4,49,0,8.95
ru,kedrovyy,57.519721999999994,79.515556,62.89,85,8,2.37
ro,mehadia,44.900833,22.366944,66.31,90,0,1.81
ru,rudnichnyy,59.70118299999999,60.288171999999996,61.99,98,92,6.17
es,teruel,40.345073,-1.104106,81.88,20,20,7.74
ro,bailesti,44.016667,23.35,78.8,57,0,4.7
in,hariana,31.637778000000004,75.84083299999999,76.66,88,80,9.75
mx,cahuacan,19.639167,-99.416111,63.52,59,75,6.93
ro,soars,45.933333000000005,24.916667,78.8,57,20,2.24
tr,manisa,38.612018,27.426465000000004,83.32,65,0,13.87
pa,quebrada bonita adentro,9.3,-79.7,84.2,70,40,4.7
ro,nana,44.266667,26.583333000000003,80.58,45,0,1.12
be,edegem,51.15,4.45,71.02,56,20,12.75
ru,maslovskiy,51.505732,39.293521000000005,77,47,0,4.47
gr,magoula,37.0833333,22.4166667,80.6,47,20,13.87
rs,priboj,43.583611,19.525833,68,88,20,4.7
gr,kozani,40.3011111,21.7863889,78.8,39,20,2.71
ua,verkhniy rohachyk,47.250535,34.337973,80.62,59,0,4.16
in,sagar,14.166667000000002,75.033333,68.74,98,92,10.98
ru,novomoskovsk,54.0105,38.2846,70.63,69,56,5.06
bd,barisal,22.7,90.3666667,79.99,99,88,10.87
br,barra velha,-26.6406,-48.6851,66.2,48,20,4.7
us,tulsa,36.1538889,-95.9925,92.1,49,40,5.82
br,matriz de camaragibe,-9.15,-35.516667,80.6,65,40,11.41
gb,houston,55.86666700000001,-4.55,65.95,64,20,10.29
us,watsonville,36.910277799999996,-121.75583329999999,65.79,82,90,3.36
kz,serebryansk,49.6925,83.289167,64.4,82,0,2.59
in,panagar,23.3,79.983333,75.85,96,80,9.31
mx,macultepec,18.166667,-92.833333,80.6,69,40,6.51
us,lutz,28.1508333,-82.4616667,88.57,55,40,4.7
it,ercolano,40.8,14.35,81.01,69,40,6.93
ru,yuzhno-yeniseyskiy,58.795832999999995,94.706389,61.36,94,80,3.15
ru,uglekamensk,43.217222,133.230278,54.43,98,80,1.92
ph,tuguegarao,17.6125,121.7281,71.17,100,80,2.59
ca,saint-henri-de-levis,46.683333000000005,-71.06666700000001,68,49,75,10.29
us,new berlin,42.976388899999996,-88.1083333,79.7,61,75,8.05
mx,amatlan,18.833333,-96.916667,72.79,51,0,4.27
us,kingsgate,47.7272222,-122.17833329999999,67.73,68,1,9.17
us,union,34.7152778,-81.62388890000001,90.41,46,1,3.49
mx,nochistlan,21.366667,-102.85,68,49,20,6.93
us,lock haven,41.1369444,-77.44722220000001,80.64,37,40,11.41
ru,krasnoufimsk,56.605854,57.766856000000004,62.89,84,12,3.27
de,visselhovede,52.983332999999995,9.6,63.5,93,75,8.05
pl,parczew,51.642884,22.908448999999997,78.82,39,92,2.93
ru,reshetnikovo,56.45,36.566666999999995,68.38,77,8,7.63
mm,pyapon,16.283333300000002,95.6833333,77.02,100,92,7.4
ru,kitovo,56.865860999999995,41.282461,65.41,76,12,3.71
bw,dekar,-21.533333300000002,21.9333333,55.96,69,0,6.51
us,niles,41.1827778,-80.7655556,79.32,42,40,12.75
ro,lapugiu de jos,45.883333,22.483333,70.09,81,44,2.04
cm,nkoteng,4.5166667,12.0333333,76.03,81,24,2.59
ga,mitzic,0.7833333,11.566666699999999,76.84,87,32,2.15
tw,yungho,25.0,121.49611110000001,82.4,94,75,4.7
ph,solo,13.746914000000002,120.90118899999999,75.76,100,92,1.7
in,kharagpur,22.333333,87.333333,80.35,96,92,6.17
mx,cancuc,16.916667,-92.483333,74.5,43,0,4.61
es,premia de mar,41.492256,2.359029,81.18,58,20,9.17
ph,mabini,13.753237,120.940487,75.76,100,92,1.7
us,salina,38.8402778,-97.61111109999999,91.4,46,1,11.41
hu,okany,46.9,21.35,74.41,83,20,3.04
ro,cenad,46.133333,20.583333,78.78,61,0,2.24
br,borda da mata,-22.266667,-46.166667,69.8,26,0,9.17
gr,yenisea,41.0666667,24.966666699999998,80.6,65,20,4.7
us,independence,39.091111100000006,-94.4152778,92.17,46,1,6.93
pt,gafanha da nazare,40.636212,-8.713377000000001,73.54,78,75,11.41
